{"class":"VERSION","release":"3.4","rev":"3.4","proto_major":3,"proto_minor":6,{"class":"DEVICES","devices":[{"class":"DEVICE","path":"#/dev/ttyUSB0","activated":"2013-03-22T16:31:16.391Z","flags":1,"driver":"Generic NMEA","native":0,"bps":115200,"parity":"N","stopbits":1,"cycle":1.00}],{"class":"WATCH","enable":true,"json":false,"nmea":false,"raw":2,"scaled":false,"timing":false,$GPRMC,163117.400,A,4016.9951,N,00349.1793,W,0.00,10.33,220313,,,D*4B
$GPRMC,163118.400,A,4016.9951,N,00349.1793,W,0.00,10.33,220313,,,D*44
$GPRMC,163119.400,A,4016.9951,N,00349.1793,W,0.00,10.33,220313,,,D*45
$GPRMC,163120.400,A,4016.9951,N,00349.1793,W,0.00,10.33,220313,,,D*4F
$GPRMC,163121.400,A,4016.9951,N,00349.1793,W,0.00,10.33,220313,,,D*4E
$GPRMC,163122.400,A,4016.9951,N,00349.1793,W,0.00,10.33,220313,,,D*4D
$GPRMC,163123.400,A,4016.9951,N,00349.1793,W,0.00,10.33,220313,,,D*4C
$GPRMC,163124.400,A,4016.9951,N,00349.1794,W,0.05,10.33,220313,,,D*49
$GPRMC,163125.400,A,4016.9950,N,00349.1794,W,0.05,10.33,220313,,,D*49
$GPRMC,163126.400,A,4016.9950,N,00349.1795,W,0.05,10.33,220313,,,D*4B
$GPRMC,163127.400,A,EMPIEZA,N,00349.1795,W,0.12,10.33,220313,,,D*4C
$GPRMC,163128.400,A,4016.9950,N,00349.1796,W,0.12,247.27,220313,,,D*75
$GPRMC,163129.400,A,4016.9950,N,00349.1800,W,0.62,244.99,220313,,,D*75
$GPRMC,163130.400,A,4016.9947,N,00349.1808,W,1.29,217.84,220313,,,D*77
$GPRMC,163131.400,A,4016.9941,N,00349.1813,W,2.31,217.57,220313,,,D*7E
$GPRMC,163132.400,A,4016.9935,N,00349.1817,W,1.92,219.41,220313,,,D*79
$GPRMC,163133.400,A,4016.9930,N,00349.1821,W,2.27,213.29,220313,,,D*71
$GPRMC,163134.400,A,4016.9922,N,00349.1826,W,2.12,206.64,220313,,,D*79
$GPRMC,163135.400,A,4016.9915,N,00349.1832,W,2.35,203.61,220313,,,D*7C
$GPRMC,163136.400,A,4016.9908,N,00349.1837,W,2.55,197.82,220313,,,D*73
$GPRMC,163137.400,A,4016.9903,N,00349.1840,W,2.46,193.35,220313,,,D*73
$GPRMC,163138.400,A,4016.9896,N,00349.1840,W,2.47,167.34,220313,,,D*7A
$GPRMC,163139.400,A,4016.9884,N,00349.1831,W,2.13,165.07,220313,,,D*7D
$GPRMC,163140.400,A,4016.9873,N,00349.1823,W,2.37,159.24,220313,,,D*70
$GPRMC,163141.400,A,4016.9866,N,00349.1819,W,2.84,160.96,220313,,,D*77
$GPRMC,163142.400,A,4016.9859,N,00349.1815,W,2.61,162.60,220313,,,D*74
$GPRMC,163143.400,A,4016.9851,N,00349.1809,W,2.71,162.52,220313,,,D*70
$GPRMC,163144.400,A,4016.9844,N,00349.1804,W,2.39,165.93,220313,,,D*78
$GPRMC,163145.400,A,4016.9838,N,00349.1803,W,2.38,172.70,220313,,,D*7F
$GPRMC,163146.400,A,4016.9830,N,00349.1803,W,2.59,170.41,220313,,,D*73
$GPRMC,163147.400,A,4016.9823,N,00349.1801,W,2.65,176.39,220313,,,D*74
$GPRMC,163148.400,A,4016.9814,N,00349.1804,W,2.89,176.85,220313,,,D*7F
$GPRMC,163149.400,A,4016.9805,N,00349.1806,W,3.10,175.49,220313,,,D*7E
$GPRMC,163150.400,A,4016.9794,N,00349.1806,W,2.68,181.71,220313,,,D*7F
$GPRMC,163151.400,A,4016.9787,N,00349.1805,W,2.51,187.07,220313,,,D*72
$GPRMC,163152.400,A,4016.9778,N,00349.1810,W,2.78,193.10,220313,,,D*7D
$GPRMC,163153.400,A,4016.9773,N,00349.1815,W,2.64,201.10,220313,,,D*77
$GPRMC,163154.400,A,4016.9766,N,00349.1818,W,2.70,205.43,220313,,,D*7E
$GPRMC,163155.400,A,4016.9759,N,00349.1821,W,2.89,199.06,220313,,,D*78
$GPRMC,163156.400,A,4016.9750,N,00349.1820,W,2.86,195.51,220313,,,D*72
$GPRMC,163157.400,A,4016.9745,N,00349.1823,W,2.84,186.54,220313,,,D*71
$GPRMC,163158.400,A,4016.9736,N,00349.1826,W,2.94,196.24,220313,,,D*78
$GPRMC,163159.400,A,4016.9729,N,00349.1828,W,2.60,201.34,220313,,,D*7E
$GPRMC,163200.400,A,4016.9720,N,00349.1830,W,2.58,204.27,220313,,,D*7D
$GPRMC,163201.400,A,4016.9710,N,00349.1830,W,2.72,190.85,220313,,,D*71
$GPRMC,163202.400,A,4016.9703,N,00349.1831,W,2.79,190.54,220313,,,D*76
$GPRMC,163203.400,A,4016.9694,N,00349.1834,W,2.88,187.84,220313,,,D*78
$GPRMC,163204.400,A,4016.9688,N,00349.1837,W,3.02,189.76,220313,,,D*71
$GPRMC,163205.400,A,4016.9679,N,00349.1842,W,2.92,192.34,220313,,,D*78
$GPRMC,163206.400,A,4016.9671,N,00349.1845,W,2.96,200.47,220313,,,D*7C
$GPRMC,163207.400,A,4016.9664,N,00349.1850,W,2.86,204.57,220313,,,D*79
$GPRMC,163208.400,A,4016.9658,N,00349.1855,W,2.80,199.69,220313,,,D*70
$GPRMC,163209.400,A,4016.9650,N,00349.1859,W,2.91,199.87,220313,,,D*75
$GPRMC,163210.400,A,4016.9642,N,00349.1863,W,3.04,211.64,220313,,,D*74
$GPRMC,163211.400,A,4016.9634,N,00349.1869,W,3.15,203.90,220313,,,D*76
$GPRMC,163212.400,A,4016.9626,N,00349.1873,W,3.19,201.97,220313,,,D*74
$GPRMC,163213.400,A,4016.9616,N,00349.1876,W,3.10,210.88,220313,,,D*74
$GPRMC,163214.400,A,4016.9610,N,00349.1883,W,2.90,221.40,220313,,,D*70
$GPRMC,163215.400,A,4016.9603,N,00349.1890,W,2.82,223.79,220313,,,D*7A
$GPRMC,163216.400,A,4016.9598,N,00349.1899,W,2.88,230.79,220313,,,D*79
$GPRMC,163217.400,A,4016.9595,N,00349.1910,W,2.94,240.50,220313,,,D*74
$GPRMC,163218.400,A,4016.9592,N,00349.1920,W,3.05,243.99,220313,,,D*70
$GPRMC,163219.400,A,4016.9588,N,00349.1930,W,3.02,251.57,220313,,,D*7D
$GPRMC,163220.400,A,4016.9586,N,00349.1942,W,3.03,262.01,220313,,,D*7E
$GPRMC,163221.400,A,4016.9587,N,00349.1955,W,2.72,269.58,220313,,,D*78
$GPRMC,163222.400,A,4016.9588,N,00349.1966,W,2.83,273.13,220313,,,D*7E
$GPRMC,163223.400,A,4016.9590,N,00349.1978,W,3.02,275.82,220313,,,D*7F
$GPRMC,163224.400,A,4016.9594,N,00349.1989,W,3.08,275.89,220313,,,D*73
$GPRMC,163225.400,A,4016.9596,N,00349.2001,W,3.04,269.19,220313,,,D*72
$GPRMC,163226.400,A,4016.9598,N,00349.2012,W,3.02,275.99,220313,,,D*7E
$GPRMC,163227.400,A,4016.9599,N,00349.2018,W,2.64,273.45,220313,,,D*72
$GPRMC,163228.400,A,4016.9603,N,00349.2028,W,2.62,284.69,220313,,,D*7E
$GPRMC,163229.400,A,4016.9607,N,00349.2037,W,2.69,284.95,220313,,,D*7D
$GPRMC,163230.400,A,4016.9611,N,00349.2042,W,2.82,290.28,220313,,,D*76
$GPRMC,163231.400,A,4016.9614,N,00349.2048,W,2.95,284.29,220313,,,D*7A
$GPRMC,163232.400,A,4016.9614,N,00349.2061,W,2.49,280.46,220313,,,D*7E
$GPRMC,163233.400,A,4016.9613,N,00349.2071,W,2.12,263.90,220313,,,D*71
$GPRMC,163234.400,A,4016.9614,N,00349.2067,W,0.05,274.04,220313,,,D*79
$GPRMC,163235.400,A,4016.9613,N,00349.2065,W,0.02,274.04,220313,,,D*7A
$GPRMC,163236.400,A,4016.9612,N,00349.2066,W,0.03,274.04,220313,,,D*7A
$GPRMC,163237.400,A,4016.9613,N,00349.2066,W,0.01,274.04,220313,,,D*78
$GPRMC,163238.400,A,4016.9613,N,00349.2066,W,0.01,274.04,220313,,,D*77
$GPRMC,163239.400,A,4016.9612,N,00349.2066,W,0.02,274.04,220313,,,D*74
$GPRMC,163240.400,A,4016.9612,N,00349.2067,W,0.02,274.04,220313,,,D*7B
$GPRMC,163241.400,A,4016.9611,N,00349.2067,W,0.02,274.04,220313,,,D*79
$GPRMC,163242.400,A,4016.9611,N,00349.2068,W,0.04,274.04,220313,,,D*73
$GPRMC,163243.400,A,4016.9611,N,00349.2068,W,0.01,274.04,220313,,,D*77
$GPRMC,163244.400,A,4016.9611,N,00349.2068,W,0.00,274.04,220313,,,D*71
$GPRMC,163245.400,A,4016.9611,N,00349.2068,W,0.00,274.04,220313,,,D*70
$GPRMC,163246.400,A,4016.9611,N,00349.2068,W,0.00,274.04,220313,,,D*73
$GPRMC,163247.400,A,4016.9611,N,00349.2068,W,0.00,274.04,220313,,,D*72
$GPRMC,163248.400,A,4016.9611,N,00349.2068,W,0.00,274.04,220313,,,D*7D
$GPRMC,163249.400,A,4016.9611,N,00349.2068,W,0.00,274.04,220313,,,D*7C
$GPRMC,163250.400,A,4016.9611,N,00349.2068,W,0.00,274.04,220313,,,D*74
$GPRMC,163251.400,A,4016.9611,N,00349.2068,W,0.00,274.04,220313,,,D*75
$GPRMC,163252.400,A,4016.9611,N,00349.2068,W,0.00,274.04,220313,,,D*76
$GPRMC,163253.400,A,4016.9612,N,00349.2068,W,0.00,274.04,220313,,,D*74
$GPRMC,163254.400,A,4016.9612,N,00349.2068,W,0.00,274.04,220313,,,D*73
$GPRMC,163255.400,A,4016.9612,N,00349.2068,W,0.00,274.04,220313,,,D*72
$GPRMC,163256.400,A,4016.9612,N,00349.2068,W,0.00,274.04,220313,,,D*71
$GPRMC,163257.400,A,4016.9612,N,00349.2067,W,0.00,274.04,220313,,,D*7F
$GPRMC,163258.400,A,4016.9612,N,00349.2067,W,0.00,274.04,220313,,,D*70
$GPRMC,163259.400,A,4016.9612,N,00349.2067,W,0.00,274.04,220313,,,D*71
$GPRMC,163300.400,A,4016.9612,N,00349.2067,W,0.00,274.04,220313,,,D*7C
$GPRMC,163301.400,A,4016.9612,N,00349.2067,W,0.00,274.04,220313,,,D*7D
$GPRMC,163302.400,A,4016.9612,N,00349.2067,W,0.00,274.04,220313,,,D*7E
$GPRMC,163303.400,A,4016.9612,N,00349.2067,W,0.00,274.04,220313,,,D*7F
$GPRMC,163304.400,A,4016.9611,N,00349.2067,W,0.00,274.04,220313,,,D*7B
$GPRMC,163305.400,A,4016.9611,N,00349.2067,W,0.00,274.04,220313,,,D*7A
$GPRMC,163306.400,A,4016.9611,N,00349.2067,W,0.00,274.04,220313,,,D*79
$GPRMC,163307.400,A,4016.9611,N,00349.2067,W,0.00,274.04,220313,,,D*78
$GPRMC,163308.400,A,4016.9611,N,00349.2067,W,0.00,274.04,220313,,,D*77
$GPRMC,163309.400,A,4016.9611,N,00349.2067,W,0.00,274.04,220313,,,D*76
$GPRMC,163310.400,A,4016.9611,N,00349.2067,W,0.00,274.04,220313,,,D*7E
$GPRMC,163311.400,A,4016.9611,N,00349.2067,W,0.00,274.04,220313,,,D*7F
$GPRMC,163312.400,A,4016.9611,N,00349.2067,W,0.00,274.04,220313,,,D*7C
$GPRMC,163313.400,A,4016.9611,N,00349.2067,W,0.00,274.04,220313,,,D*7D
$GPRMC,163314.400,A,4016.9611,N,00349.2067,W,0.00,274.04,220313,,,D*7A
$GPRMC,163402.400,A,4016.9611,N,00349.2066,W,0.00,274.04,220313,,,D*7B
$GPRMC,163403.400,A,4016.9611,N,00349.2066,W,0.00,274.04,220313,,,D*7A
$GPRMC,163404.400,A,4016.9611,N,00349.2067,W,0.00,274.04,220313,,,D*7C
$GPRMC,163405.400,A,4016.9611,N,00349.2066,W,0.00,274.04,220313,,,D*7C
$GPRMC,163406.400,A,4016.9611,N,00349.2066,W,0.00,274.04,220313,,,D*7F
$GPRMC,163407.400,A,4016.9611,N,00349.2066,W,0.00,274.04,220313,,,D*7E
$GPRMC,163408.400,A,4016.9611,N,00349.2066,W,0.00,274.04,220313,,,D*71
$GPRMC,163409.400,A,4016.9611,N,00349.2066,W,0.00,274.04,220313,,,D*70
$GPRMC,163410.400,A,4016.9611,N,00349.2066,W,0.00,274.04,220313,,,D*78
$GPRMC,163411.400,A,4016.9611,N,00349.2066,W,0.00,274.04,220313,,,D*79
$GPRMC,163412.400,A,4016.9611,N,00349.2066,W,0.04,274.04,220313,,,D*7E
$GPRMC,163413.400,A,4016.9611,N,00349.2067,W,0.09,274.04,220313,,,D*73
$GPRMC,163414.400,A,4016.9610,N,00349.2067,W,0.10,274.04,220313,,,D*7D
$GPRMC,163415.400,A,4016.9607,N,00349.2076,W,2.79,263.11,220313,,,D*75
$GPRMC,163416.400,A,4016.9607,N,00349.2087,W,2.87,266.54,220313,,,D*7D
$GPRMC,163417.400,A,4016.9607,N,00349.2099,W,2.82,273.79,220313,,,D*7D
$GPRMC,163418.400,A,4016.9607,N,00349.2108,W,2.57,277.86,220313,,,D*77
$GPRMC,163419.400,A,4016.9606,N,00349.2116,W,2.57,269.33,220313,,,D*79
$GPRMC,163420.400,A,4016.9604,N,00349.2126,W,2.74,278.70,220313,,,D*74
$GPRMC,163421.400,A,4016.9605,N,00349.2136,W,2.82,278.45,220313,,,D*7A
$GPRMC,163422.400,A,4016.9604,N,00349.2147,W,2.89,274.54,220313,,,D*79
$GPRMC,163423.400,A,4016.9604,N,00349.2157,W,2.99,272.77,220313,,,D*7F
$GPRMC,163424.400,A,4016.9606,N,00349.2169,W,2.89,268.43,220313,,,D*7A
$GPRMC,163425.400,A,4016.9605,N,00349.2180,W,2.82,271.74,220313,,,D*78
$GPRMC,163426.400,A,4016.9605,N,00349.2190,W,2.87,267.95,220313,,,D*77
$GPRMC,163427.400,A,4016.9604,N,00349.2200,W,3.11,264.86,220313,,,D*72
$GPRMC,163428.400,A,4016.9601,N,00349.2209,W,2.69,268.41,220313,,,D*78
$GPRMC,163429.400,A,4016.9601,N,00349.2217,W,2.65,279.63,220313,,,D*7A
$GPRMC,163430.400,A,4016.9602,N,00349.2227,W,2.45,279.40,220313,,,D*71
$GPRMC,163431.400,A,4016.9603,N,00349.2240,W,2.62,286.98,220313,,,D*70
$GPRMC,163432.400,A,4016.9605,N,00349.2248,W,2.84,281.06,220313,,,D*75
$GPRMC,163433.400,A,4016.9607,N,00349.2262,W,3.11,269.30,220313,,,D*70
$GPRMC,163434.400,A,4016.9607,N,00349.2274,W,3.12,271.18,220313,,,D*70
$GPRMC,163435.400,A,4016.9608,N,00349.2283,W,3.20,272.96,220313,,,D*72
$GPRMC,163436.400,A,4016.9608,N,00349.2294,W,3.03,270.93,220313,,,D*71
$GPRMC,163437.400,A,4016.9608,N,00349.2305,W,3.14,265.66,220313,,,D*71
$GPRMC,163438.400,A,4016.9607,N,00349.2317,W,3.21,261.83,220313,,,D*7B
$GPRMC,163439.400,A,4016.9606,N,00349.2327,W,3.12,271.62,220313,,,D*76
$GPRMC,163440.400,A,4016.9607,N,00349.2336,W,2.82,278.48,220313,,,D*70
$GPRMC,163441.400,A,4016.9608,N,00349.2349,W,2.77,273.15,220313,,,D*7F
$GPRMC,163442.400,A,4016.9609,N,00349.2360,W,2.89,273.44,220313,,,D*73
$GPRMC,163443.400,A,4016.9609,N,00349.2372,W,2.76,273.00,220313,,,D*71
$GPRMC,163444.400,A,4016.9610,N,00349.2382,W,2.86,277.24,220313,,,D*7C
$GPRMC,163445.400,A,4016.9611,N,00349.2393,W,2.74,271.89,220313,,,D*70
$GPRMC,163446.400,A,4016.9610,N,00349.2402,W,2.75,274.13,220313,,,D*7A
$GPRMC,163447.400,A,4016.9609,N,00349.2414,W,2.70,269.09,220313,,,D*76
$GPRMC,163448.400,A,4016.9610,N,00349.2427,W,2.68,271.41,220313,,,D*7D
$GPRMC,163449.400,A,4016.9610,N,00349.2439,W,2.75,277.90,220313,,,D*75
$GPRMC,163450.400,A,4016.9608,N,00349.2453,W,2.37,281.39,220313,,,D*74
$GPRMC,163451.400,A,4016.9609,N,00349.2463,W,2.53,278.74,220313,,,D*7A
$GPRMC,163452.400,A,4016.9610,N,00349.2473,W,2.60,284.46,220313,,,D*72
$GPRMC,163453.400,A,4016.9613,N,00349.2485,W,2.77,297.85,220313,,,D*72
$GPRMC,163454.400,A,4016.9618,N,00349.2494,W,2.88,316.19,220313,,,D*73
$GPRMC,163455.400,A,4016.9626,N,00349.2499,W,2.91,339.27,220313,,,D*7A
$GPRMC,163456.400,A,4016.9634,N,00349.2505,W,3.17,353.60,220313,,,D*7E
$GPRMC,163457.400,A,4016.9642,N,00349.2510,W,3.36,343.64,220313,,,D*7C
$GPRMC,163458.400,A,4016.9649,N,00349.2515,W,3.51,343.13,220313,,,D*7C
$GPRMC,163459.400,A,4016.9657,N,00349.2519,W,3.45,346.13,220313,,,D*7E
$GPRMC,163500.400,A,4016.9664,N,00349.2523,W,3.26,346.55,220313,,,D*7D
$GPRMC,163501.400,A,4016.9670,N,00349.2527,W,3.02,348.86,220313,,,D*7B
$GPRMC,163502.400,A,4016.9674,N,00349.2533,W,3.34,352.93,220313,,,D*73
$GPRMC,163503.400,A,4016.9677,N,00349.2536,W,3.12,353.74,220313,,,D*78
$GPRMC,163504.400,A,4016.9683,N,00349.2536,W,2.77,2.82,220313,,,D*78
$GPRMC,163505.400,A,4016.9694,N,00349.2533,W,2.77,2.98,220313,,,D*71
$GPRMC,163506.400,A,4016.9699,N,00349.2533,W,2.91,3.97,220313,,,D*79
$GPRMC,163507.400,A,4016.9703,N,00349.2532,W,3.17,15.71,220313,,,D*4B
$GPRMC,163508.400,A,4016.9713,N,00349.2526,W,3.53,21.57,220313,,,D*43
$GPRMC,163509.400,A,4016.9723,N,00349.2519,W,3.46,21.88,220313,,,D*4B
$GPRMC,163510.400,A,4016.9735,N,00349.2511,W,3.37,26.63,220313,,,D*48
$GPRMC,163511.400,A,4016.9747,N,00349.2504,W,3.44,27.24,220313,,,D*4E
$GPRMC,163512.400,A,4016.9757,N,00349.2498,W,3.02,22.28,220313,,,D*43
$GPRMC,163513.400,A,4016.9762,N,00349.2495,W,2.99,358.26,220313,,,D*7A
$GPRMC,163514.400,A,4016.9764,N,00349.2499,W,3.05,341.42,220313,,,D*79
$GPRMC,163515.400,A,4016.9769,N,00349.2506,W,3.03,335.66,220313,,,D*71
$GPRMC,163516.400,A,4016.9775,N,00349.2512,W,3.23,344.29,220313,,,D*75
$GPRMC,163517.400,A,4016.9785,N,00349.2513,W,3.31,345.36,220313,,,D*76
$GPRMC,163518.400,A,4016.9791,N,00349.2518,W,3.30,341.93,220313,,,D*7D
$GPRMC,163519.400,A,4016.9797,N,00349.2522,W,3.19,344.99,220313,,,D*77
$GPRMC,163520.400,A,4016.9808,N,00349.2524,W,3.23,351.01,220313,,,D*7E
$GPRMC,163521.400,A,4016.9817,N,00349.2527,W,3.03,4.76,220313,,,D*73
$GPRMC,163522.400,A,4016.9826,N,00349.2528,W,3.41,13.96,220313,,,D*43
$GPRMC,163523.400,A,4016.9836,N,00349.2524,W,3.04,14.63,220313,,,D*43
$GPRMC,163524.400,A,4016.9845,N,00349.2516,W,2.97,23.71,220313,,,D*4D
$GPRMC,163525.400,A,4016.9853,N,00349.2509,W,2.46,19.89,220313,,,D*47
$GPRMC,163526.400,A,4016.9860,N,00349.2502,W,2.10,29.29,220313,,,D*45
$GPRMC,163527.400,A,4016.9868,N,00349.2498,W,2.04,23.29,220313,,,D*41
$GPRMC,163528.400,A,4016.9878,N,00349.2495,W,2.25,20.92,220313,,,D*42
$GPRMC,163529.400,A,4016.9888,N,00349.2492,W,2.34,8.36,220313,,,D*7F
$GPRMC,163530.400,A,4016.9895,N,00349.2490,W,2.59,10.23,220313,,,D*4F
$GPRMC,163531.400,A,4016.9902,N,00349.2490,W,2.48,355.34,220313,,,D*75
$GPRMC,163532.400,A,4016.9913,N,00349.2492,W,2.87,341.70,220313,,,D*72
$GPRMC,163533.400,A,4016.9921,N,00349.2495,W,2.51,343.25,220313,,,D*7C
$GPRMC,163534.400,A,4016.9929,N,00349.2498,W,2.73,330.36,220313,,,D*78
$GPRMC,163535.400,A,4016.9937,N,00349.2502,W,2.63,338.57,220313,,,D*7A
$GPRMC,163536.400,A,4016.9946,N,00349.2506,W,2.62,344.68,220313,,,D*7D
$GPRMC,163537.400,A,4016.9954,N,00349.2510,W,2.66,351.89,220313,,,D*77
$GPRMC,163538.400,A,4016.9963,N,00349.2509,W,2.60,356.37,220313,,,D*70
$GPRMC,163539.400,A,4016.9970,N,00349.2514,W,2.86,359.46,220313,,,D*7E
$GPRMC,163540.400,A,4016.9976,N,00349.2516,W,3.16,0.99,220313,,,D*71
$GPRMC,163541.400,A,4016.9988,N,00349.2513,W,3.37,4.65,220313,,,D*70
$GPRMC,163542.400,A,4016.9997,N,00349.2510,W,3.29,6.99,220313,,,D*70
$GPRMC,163543.400,A,4017.0005,N,00349.2507,W,3.26,12.33,220313,,,D*47
$GPRMC,163544.400,A,4017.0017,N,00349.2504,W,3.47,25.97,220313,,,D*4D
$GPRMC,163545.400,A,4017.0028,N,00349.2499,W,3.21,28.02,220313,,,D*44
$GPRMC,163546.400,A,4017.0036,N,00349.2492,W,3.05,23.75,220313,,,D*4E
$GPRMC,163547.400,A,4017.0043,N,00349.2488,W,2.55,19.58,220313,,,D*44
$GPRMC,163548.400,A,4017.0048,N,00349.2485,W,2.06,5.47,220313,,,D*78
$GPRMC,163549.400,A,4017.0047,N,00349.2486,W,0.04,4.04,220313,,,D*73
$GPRMC,163550.400,A,4017.0046,N,00349.2485,W,0.01,4.04,220313,,,D*7C
$GPRMC,163551.400,A,4017.0047,N,00349.2485,W,0.07,4.04,220313,,,D*7A
$GPRMC,163552.400,A,4017.0044,N,00349.2490,W,0.04,4.04,220313,,,D*7D
$GPRMC,163553.400,A,4017.0044,N,00349.2490,W,0.01,4.04,220313,,,D*79
$GPRMC,163554.400,A,4017.0045,N,00349.2490,W,0.01,4.04,220313,,,D*7F
$GPRMC,163555.400,A,4017.0045,N,00349.2490,W,0.01,4.04,220313,,,D*7E
$GPRMC,163556.400,A,4017.0045,N,00349.2490,W,0.00,4.04,220313,,,D*7C
$GPRMC,163557.400,A,4017.0045,N,00349.2490,W,0.00,4.04,220313,,,D*7D
$GPRMC,163558.400,A,4017.0045,N,00349.2490,W,0.00,4.04,220313,,,D*72
$GPRMC,163559.400,A,4017.0045,N,00349.2490,W,0.00,4.04,220313,,,D*73
$GPRMC,163600.400,A,4017.0045,N,00349.2490,W,0.00,4.04,220313,,,D*7C
$GPRMC,163601.400,A,4017.0045,N,00349.2490,W,0.00,4.04,220313,,,D*7D
$GPRMC,163602.400,A,4017.0045,N,00349.2490,W,0.00,4.04,220313,,,D*7E
$GPRMC,163603.400,A,4017.0045,N,00349.2490,W,0.00,4.04,220313,,,D*7F
$GPRMC,163604.400,A,4017.0045,N,00349.2490,W,0.00,4.04,220313,,,D*78
$GPRMC,163605.400,A,4017.0045,N,00349.2490,W,0.00,4.04,220313,,,D*79
$GPRMC,163606.400,A,4017.0045,N,00349.2490,W,0.00,4.04,220313,,,D*7A
$GPRMC,163607.400,A,4017.0045,N,00349.2490,W,0.00,4.04,220313,,,D*7B
$GPRMC,163608.400,A,4017.0045,N,00349.2490,W,0.00,4.04,220313,,,D*74
$GPRMC,163609.400,A,4017.0045,N,00349.2490,W,0.00,4.04,220313,,,D*75
$GPRMC,163610.400,A,4017.0045,N,00349.2490,W,0.00,4.04,220313,,,D*7D
$GPRMC,163611.400,A,4017.0045,N,00349.2490,W,0.00,4.04,220313,,,D*7C
$GPRMC,163612.400,A,4017.0045,N,00349.2490,W,0.00,4.04,220313,,,D*7F
$GPRMC,163613.400,A,4017.0044,N,00349.2490,W,0.00,4.04,220313,,,D*7F
$GPRMC,163614.400,A,4017.0044,N,00349.2490,W,0.00,4.04,220313,,,D*78
$GPRMC,163615.400,A,4017.0044,N,00349.2490,W,0.00,4.04,220313,,,D*79
$GPRMC,163616.400,A,4017.0044,N,00349.2490,W,0.00,4.04,220313,,,D*7A
$GPRMC,163617.400,A,4017.0044,N,00349.2490,W,0.00,4.04,220313,,,D*7B
$GPRMC,163618.400,A,4017.0045,N,00349.2490,W,0.07,4.04,220313,,,D*72
$GPRMC,163619.400,A,4017.0045,N,00349.2490,W,0.08,4.04,220313,,,D*7C
$GPRMC,163620.400,A,4017.0048,N,00349.2489,W,0.09,24.27,220313,,,D*41
$GPRMC,163621.400,A,4017.0056,N,00349.2486,W,2.59,32.58,220313,,,D*48
$GPRMC,163622.400,A,4017.0063,N,00349.2482,W,2.50,35.11,220313,,,D*4A
$GPRMC,163623.400,A,4017.0070,N,00349.2474,W,2.76,41.51,220313,,,D*43
$GPRMC,163624.400,A,4017.0077,N,00349.2464,W,2.69,56.49,220313,,,D*43
$GPRMC,163625.400,A,4017.0082,N,00349.2450,W,2.62,83.23,220313,,,D*40
$GPRMC,163626.400,A,4017.0081,N,00349.2441,W,2.30,122.74,220313,,,D*7F
$GPRMC,163627.400,A,4017.0076,N,00349.2437,W,2.68,154.88,220313,,,D*78
$GPRMC,163628.400,A,4017.0070,N,00349.2431,W,2.76,129.31,220313,,,D*70
$GPRMC,163629.400,A,4017.0069,N,00349.2423,W,2.91,103.09,220313,,,D*70
$GPRMC,163630.400,A,4017.0071,N,00349.2415,W,2.54,61.30,220313,,,D*42
$GPRMC,163631.400,A,4017.0076,N,00349.2407,W,2.53,38.92,220313,,,D*44
$GPRMC,163632.400,A,4017.0081,N,00349.2399,W,2.74,49.07,220313,,,D*40
$GPRMC,163633.400,A,4017.0086,N,00349.2392,W,2.35,76.85,220313,,,D*4E
$GPRMC,163634.400,A,4017.0086,N,00349.2383,W,2.56,111.18,220313,,,D*78
$GPRMC,163635.400,A,4017.0083,N,00349.2375,W,2.73,143.19,220313,,,D*74
$GPRMC,163636.400,A,4017.0075,N,00349.2371,W,2.84,144.44,220313,,,D*7D
$GPRMC,163637.400,A,4017.0067,N,00349.2366,W,2.86,136.96,220313,,,D*71
$GPRMC,163638.400,A,4017.0061,N,00349.2358,W,2.65,107.26,220313,,,D*71
$GPRMC,163639.400,A,4017.0062,N,00349.2347,W,2.90,74.43,220313,,,D*41
$GPRMC,163640.400,A,4017.0069,N,00349.2338,W,2.92,37.92,220313,,,D*45
$GPRMC,163641.400,A,4017.0076,N,00349.2331,W,2.44,42.78,220313,,,D*4E
$GPRMC,163642.400,A,4017.0082,N,00349.2324,W,2.91,41.78,220313,,,D*49
$GPRMC,163643.400,A,4017.0085,N,00349.2314,W,2.69,79.07,220313,,,D*48
$GPRMC,163644.400,A,4017.0082,N,00349.2306,W,2.55,123.50,220313,,,D*78
$GPRMC,163645.400,A,4017.0077,N,00349.2301,W,3.03,130.78,220313,,,D*7E
$GPRMC,163646.400,A,4017.0075,N,00349.2292,W,2.76,101.26,220313,,,D*7E
$GPRMC,163647.400,A,4017.0076,N,00349.2281,W,2.76,100.33,220313,,,D*7B
$GPRMC,163648.400,A,4017.0077,N,00349.2270,W,2.88,95.44,220313,,,D*47
$GPRMC,163649.400,A,4017.0077,N,00349.2260,W,2.72,95.39,220313,,,D*48
$GPRMC,163650.400,A,4017.0075,N,00349.2248,W,2.86,92.98,220313,,,D*4F
$GPRMC,163651.400,A,4017.0075,N,00349.2237,W,2.52,98.21,220313,,,D*47
$GPRMC,163652.400,A,4017.0074,N,00349.2227,W,2.89,97.71,220313,,,D*48
$GPRMC,163653.400,A,4017.0074,N,00349.2219,W,3.05,89.44,220313,,,D*48
$GPRMC,163654.400,A,4017.0074,N,00349.2209,W,3.08,93.08,220313,,,D*40
$GPRMC,163655.400,A,4017.0073,N,00349.2197,W,2.98,91.64,220313,,,D*42
$GPRMC,163656.400,A,4017.0074,N,00349.2185,W,2.97,89.25,220313,,,D*46
$GPRMC,163657.400,A,4017.0074,N,00349.2173,W,3.05,92.40,220313,,,D*4D
$GPRMC,163658.400,A,4017.0074,N,00349.2162,W,3.03,91.67,220313,,,D*42
$GPRMC,163659.400,A,4017.0074,N,00349.2153,W,2.99,85.97,220313,,,D*49
$GPRMC,163700.400,A,4017.0076,N,00349.2145,W,2.96,77.70,220313,,,D*4A
$GPRMC,163701.400,A,4017.0076,N,00349.2135,W,2.96,83.98,220313,,,D*41
$GPRMC,163702.400,A,4017.0075,N,00349.2122,W,3.11,91.18,220313,,,D*42
$GPRMC,163703.400,A,4017.0075,N,00349.2109,W,3.10,93.29,220313,,,D*4B
$GPRMC,163704.400,A,4017.0075,N,00349.2098,W,3.27,93.63,220313,,,D*4F
$GPRMC,163705.400,A,4017.0074,N,00349.2087,W,3.12,94.26,220313,,,D*41
$GPRMC,163706.400,A,4017.0073,N,00349.2075,W,2.98,94.70,220313,,,D*48
$GPRMC,163707.400,A,4017.0074,N,00349.2063,W,2.89,91.95,220313,,,D*47
$GPRMC,163708.400,A,4017.0075,N,00349.2051,W,2.82,88.94,220313,,,D*4A
$GPRMC,163709.400,A,4017.0075,N,00349.2041,W,3.03,95.12,220313,,,D*40
$GPRMC,163710.400,A,4017.0075,N,00349.2029,W,2.96,98.32,220313,,,D*44
$GPRMC,163711.400,A,4017.0073,N,00349.2018,W,3.02,102.42,220313,,,D*78
$GPRMC,163712.400,A,4017.0073,N,00349.2007,W,3.24,93.79,220313,,,D*40
$GPRMC,163713.400,A,4017.0073,N,00349.1995,W,3.12,95.51,220313,,,D*49
$GPRMC,163714.400,A,4017.0073,N,00349.1983,W,2.83,94.08,220313,,,D*4D
$GPRMC,163715.400,A,4017.0074,N,00349.1972,W,2.85,90.32,220313,,,D*4E
$GPRMC,163716.400,A,4017.0074,N,00349.1960,W,2.69,93.90,220313,,,D*47
$GPRMC,163717.400,A,4017.0071,N,00349.1948,W,3.22,92.78,220313,,,D*40
$GPRMC,163718.400,A,4017.0072,N,00349.1936,W,3.20,95.87,220313,,,D*40
$GPRMC,163719.400,A,4017.0069,N,00349.1925,W,3.22,95.65,220313,,,D*47
$GPRMC,163720.400,A,4017.0068,N,00349.1914,W,3.21,91.34,220313,,,D*4D
$GPRMC,163721.400,A,4017.0068,N,00349.1903,W,3.34,84.81,220313,,,D*44
$GPRMC,163722.400,A,4017.0067,N,00349.1891,W,3.07,91.78,220313,,,D*40
$GPRMC,163723.400,A,4017.0065,N,00349.1880,W,2.87,93.37,220313,,,D*43
$GPRMC,163724.400,A,4017.0064,N,00349.1870,W,3.09,88.86,220313,,,D*4D
$GPRMC,163725.400,A,4017.0064,N,00349.1859,W,2.65,88.36,220313,,,D*47
$GPRMC,163726.400,A,4017.0064,N,00349.1848,W,2.69,84.82,220313,,,D*4B
$GPRMC,163727.400,A,4017.0062,N,00349.1842,W,2.85,107.21,220313,,,D*77
$GPRMC,163728.400,A,4017.0058,N,00349.1838,W,2.57,159.32,220313,,,D*7A
$GPRMC,163729.400,A,4017.0053,N,00349.1837,W,2.77,180.67,220313,,,D*79
$GPRMC,163730.400,A,4017.0045,N,00349.1840,W,2.85,191.41,220313,,,D*7F
$GPRMC,163731.400,A,4017.0039,N,00349.1841,W,2.77,187.36,220313,,,D*7E
$GPRMC,163732.400,A,4017.0031,N,00349.1843,W,2.77,181.68,220313,,,D*7A
$GPRMC,163733.400,A,4017.0025,N,00349.1842,W,3.35,179.92,220313,,,D*7A
$GPRMC,163734.400,A,4017.0017,N,00349.1843,W,3.04,183.04,220313,,,D*75
$GPRMC,163735.400,A,4017.0007,N,00349.1842,W,2.85,180.04,220313,,,D*7F
$GPRMC,163736.400,A,4016.9999,N,00349.1842,W,3.36,174.32,220313,,,D*7D
$GPRMC,163737.400,A,4016.9988,N,00349.1840,W,3.05,173.42,220313,,,D*7E
$GPRMC,163738.400,A,4016.9978,N,00349.1842,W,2.82,180.39,220313,,,D*72
$GPRMC,163739.400,A,4016.9968,N,00349.1841,W,2.83,183.75,220313,,,D*7B
$GPRMC,163740.400,A,4016.9957,N,00349.1838,W,2.83,189.62,220313,,,D*7B
$GPRMC,163741.400,A,4016.9951,N,00349.1839,W,2.70,185.65,220313,,,D*7A
$GPRMC,163742.400,A,4016.9942,N,00349.1841,W,2.91,186.29,220313,,,D*70
$GPRMC,163743.400,A,4016.9933,N,00349.1842,W,2.88,190.50,220313,,,D*75
$GPRMC,163744.400,A,4016.9924,N,00349.1842,W,2.84,188.90,220313,,,D*7D
$GPRMC,163745.400,A,4016.9916,N,00349.1841,W,2.81,185.16,220313,,,D*78
$GPRMC,163746.400,A,4016.9909,N,00349.1841,W,3.01,185.84,220313,,,D*77
$GPRMC,163747.400,A,4016.9901,N,00349.1844,W,3.20,184.35,220313,,,D*73
$GPRMC,163748.400,A,4016.9892,N,00349.1844,W,2.97,179.51,220313,,,D*7A
$GPRMC,163749.400,A,4016.9885,N,00349.1841,W,2.81,183.75,220313,,,D*7C
$GPRMC,163750.400,A,4016.9876,N,00349.1842,W,2.86,185.40,220313,,,D*7C
$GPRMC,163751.400,A,4016.9869,N,00349.1844,W,2.73,189.42,220313,,,D*71
$GPRMC,163752.400,A,4016.9859,N,00349.1845,W,2.80,189.52,220313,,,D*7D
$GPRMC,163753.400,A,4016.9849,N,00349.1844,W,3.24,179.84,220313,,,D*77
$GPRMC,163754.400,A,4016.9841,N,00349.1842,W,3.18,181.25,220313,,,D*7D
$GPRMC,163755.400,A,4016.9833,N,00349.1845,W,2.66,173.55,220313,,,D*7C
$GPRMC,163756.400,A,4016.9827,N,00349.1846,W,2.66,169.50,220313,,,D*77
$GPRMC,163757.400,A,4016.9821,N,00349.1845,W,2.80,174.67,220313,,,D*73
$GPRMC,163758.400,A,4016.9815,N,00349.1851,W,2.61,216.10,220313,,,D*76
$GPRMC,163759.400,A,4016.9809,N,00349.1861,W,2.69,231.58,220313,,,D*78
$GPRMC,163800.400,A,4016.9801,N,00349.1867,W,3.02,208.15,220313,,,D*7A
$GPRMC,163801.400,A,4016.9793,N,00349.1869,W,2.66,183.92,220313,,,D*7D
$GPRMC,163802.400,A,4016.9787,N,00349.1866,W,2.57,157.93,220313,,,D*7E
$GPRMC,163803.400,A,4016.9779,N,00349.1862,W,1.91,123.40,220313,,,D*7E
$GPRMC,163804.400,A,4016.9780,N,00349.1853,W,2.05,78.76,220313,,,D*49
$GPRMC,163805.400,A,4016.9784,N,00349.1849,W,1.77,78.76,220313,,,D*41
$GPRMC,163806.400,A,4016.9790,N,00349.1847,W,2.50,16.66,220313,,,D*46
$GPRMC,163807.400,A,4016.9796,N,00349.1843,W,2.80,13.40,220313,,,D*49
$GPRMC,163808.400,A,4016.9804,N,00349.1843,W,2.57,0.98,220313,,,D*7F
$GPRMC,163809.400,A,4016.9812,N,00349.1844,W,3.01,353.09,220313,,,D*71
$GPRMC,163810.400,A,4016.9822,N,00349.1842,W,3.28,359.43,220313,,,D*73
$GPRMC,163811.400,A,4016.9830,N,00349.1838,W,2.92,0.44,220313,,,D*74
$GPRMC,163812.400,A,4016.9841,N,00349.1834,W,2.67,1.85,220313,,,D*7B
$GPRMC,163813.400,A,4016.9850,N,00349.1832,W,2.51,3.60,220313,,,D*70
$GPRMC,163814.400,A,4016.9859,N,00349.1831,W,2.51,12.60,220313,,,D*4D
$GPRMC,163815.400,A,4016.9866,N,00349.1831,W,2.75,0.90,220313,,,D*7A
$GPRMC,163816.400,A,4016.9876,N,00349.1832,W,2.77,6.70,220313,,,D*71
$GPRMC,163817.400,A,4016.9887,N,00349.1830,W,2.88,9.18,220313,,,D*7D
$GPRMC,163818.400,A,4016.9894,N,00349.1827,W,3.33,36.76,220313,,,D*43
$GPRMC,163819.400,A,4016.9897,N,00349.1817,W,2.76,65.21,220313,,,D*46
$GPRMC,163820.400,A,4016.9897,N,00349.1809,W,2.52,78.79,220313,,,D*44
$GPRMC,163821.400,A,4016.9898,N,00349.1797,W,2.50,59.00,220313,,,D*4D
$GPRMC,163822.400,A,4016.9903,N,00349.1792,W,2.42,42.11,220313,,,D*41
$GPRMC,163823.400,A,4016.9898,N,00349.1783,W,2.83,34.16,220313,,,D*48
$GPRMC,163824.400,A,4016.9897,N,00349.1772,W,2.46,68.91,220313,,,D*41
$GPRMC,163825.400,A,4016.9896,N,00349.1763,W,2.88,86.71,220313,,,D*4D
$GPRMC,163826.400,A,4016.9896,N,00349.1753,W,2.59,77.30,220313,,,D*4A
$GPRMC,163827.400,A,4016.9893,N,00349.1741,W,1.89,94.59,220313,,,D*41
$GPRMC,163828.400,A,4016.9891,N,00349.1726,W,1.89,94.59,220313,,,D*4D
$GPRMC,163829.400,A,4016.9885,N,00349.1711,W,1.60,107.75,220313,,,D*7F
$GPRMC,163830.400,A,4016.9884,N,00349.1706,W,1.60,107.75,220313,,,D*70
$GPRMC,163831.400,A,4016.9884,N,00349.1700,W,1.60,107.75,220313,,,D*77
$GPRMC,163832.400,A,4016.9884,N,00349.1695,W,1.60,107.75,220313,,,D*79
$GPRMC,163833.400,A,4016.9887,N,00349.1690,W,1.60,107.75,220313,,,D*7E
$GPRMC,163834.400,A,4016.9888,N,00349.1686,W,1.61,107.75,220313,,,D*70
$GPRMC,163835.400,A,4016.9889,N,00349.1682,W,1.47,104.53,220313,,,D*77
$GPRMC,163836.400,A,4016.9889,N,00349.1683,W,0.09,104.53,220313,,,D*7E
$GPRMC,163837.400,A,4016.9889,N,00349.1683,W,0.08,104.53,220313,,,D*7E
$GPRMC,163838.400,A,4016.9889,N,00349.1683,W,0.08,104.53,220313,,,D*71
$GPRMC,163839.400,A,4016.9889,N,00349.1683,W,0.08,104.53,220313,,,D*70
$GPRMC,163840.400,A,4016.9889,N,00349.1682,W,0.00,104.53,220313,,,D*77
$GPRMC,163841.400,A,4016.9889,N,00349.1683,W,0.00,104.53,220313,,,D*77
$GPRMC,163842.400,A,4016.9889,N,00349.1682,W,0.00,104.53,220313,,,D*75
$GPRMC,163843.400,A,4016.9889,N,00349.1682,W,0.00,104.53,220313,,,D*74
$GPRMC,163844.400,A,4016.9889,N,00349.1682,W,0.05,104.53,220313,,,D*76
$GPRMC,163845.400,A,4016.9888,N,00349.1682,W,0.09,104.53,220313,,,D*7A
$GPRMC,163846.400,A,4016.9888,N,00349.1682,W,0.09,104.53,220313,,,D*79
$GPRMC,163847.400,A,4016.9888,N,00349.1681,W,0.09,104.53,220313,,,D*7B
$GPRMC,163848.400,A,4016.9888,N,00349.1681,W,0.10,104.53,220313,,,D*7C
$GPRMC,163849.400,A,4016.9888,N,00349.1680,W,0.10,104.53,220313,,,D*7C
$GPRMC,163850.400,A,4016.9887,N,00349.1678,W,0.10,104.53,220313,,,D*7C
$GPRMC,163851.400,A,4016.9887,N,00349.1677,W,0.10,104.53,220313,,,D*72
$GPRMC,163852.400,A,4016.9886,N,00349.1675,W,0.10,104.53,220313,,,D*72
$GPRMC,163853.400,A,4016.9886,N,00349.1670,W,0.10,104.53,220313,,,D*76
$GPRMC,163854.400,A,4016.9884,N,00349.1665,W,0.10,104.53,220313,,,D*77
$GPRMC,163855.400,A,4016.9883,N,00349.1655,W,0.10,104.53,220313,,,D*72
$GPRMC,163856.400,A,4016.9886,N,00349.1649,W,0.50,35.46,220313,,,D*4A
$GPRMC,163857.400,A,4016.9890,N,00349.1642,W,0.89,18.47,220313,,,D*4D
$GPRMC,163858.400,A,4016.9891,N,00349.1639,W,0.89,17.42,220313,,,D*45
$GPRMC,163859.400,A,4016.9892,N,00349.1635,W,0.89,19.67,220313,,,D*42
$GPRMC,163900.400,A,4016.9893,N,00349.1630,W,0.89,22.74,220313,,,D*41
$GPRMC,163901.400,A,4016.9896,N,00349.1627,W,0.89,24.82,220313,,,D*4C
$GPRMC,163902.400,A,4016.9900,N,00349.1625,W,0.89,24.68,220313,,,D*47
$GPRMC,163903.400,A,4016.9903,N,00349.1623,W,1.06,24.08,220313,,,D*43
$GPRMC,163904.400,A,4016.9906,N,00349.1622,W,1.06,23.95,220313,,,D*43
$GPRMC,163905.400,A,4016.9909,N,00349.1620,W,1.06,23.97,220313,,,D*4D
$GPRMC,163906.400,A,4016.9912,N,00349.1618,W,1.06,23.61,220313,,,D*46
$GPRMC,163907.400,A,4016.9915,N,00349.1617,W,1.06,22.99,220313,,,D*49
$GPRMC,163908.400,A,4016.9918,N,00349.1616,W,1.06,22.43,220313,,,D*4D
$GPRMC,163909.400,A,4016.9920,N,00349.1614,W,1.06,22.63,220313,,,D*47
$GPRMC,163910.400,A,4016.9923,N,00349.1611,W,1.06,23.23,220313,,,D*4C
$GPRMC,163911.400,A,4016.9926,N,00349.1608,W,1.06,24.09,220313,,,D*4F
$GPRMC,163912.400,A,4016.9931,N,00349.1608,W,1.06,23.02,220313,,,D*46
$GPRMC,163913.400,A,4016.9939,N,00349.1606,W,1.06,20.84,220313,,,D*4C
$GPRMC,163914.400,A,4016.9945,N,00349.1601,W,1.06,19.97,220313,,,D*4F
$GPRMC,163915.400,A,4016.9951,N,00349.1597,W,1.32,19.61,220313,,,D*49
$GPRMC,163916.400,A,4016.9956,N,00349.1593,W,1.32,17.61,220313,,,D*47
$GPRMC,163917.400,A,4016.9962,N,00349.1591,W,1.32,14.99,220313,,,D*47
$GPRMC,163918.400,A,4016.9968,N,00349.1589,W,1.32,11.24,220313,,,D*48
$GPRMC,163919.400,A,4016.9976,N,00349.1586,W,1.60,7.91,220313,,,D*77
$GPRMC,163920.400,A,4016.9983,N,00349.1584,W,1.60,5.78,220313,,,D*70
$GPRMC,163921.400,A,4016.9990,N,00349.1584,W,1.60,3.00,220313,,,D*7A
$GPRMC,163922.400,V,4016.9999,N,00349.1584,W,2.05,358.18,220313,,,E*62
$GPRMC,163923.400,V,4017.0007,N,00349.1584,W,2.10,357.72,220313,,,E*62
$GPRMC,163924.400,V,4017.0012,N,00349.1586,W,2.11,356.39,220313,,,E*6C
$GPRMC,163925.400,V,4017.0017,N,00349.1588,W,2.12,354.75,220313,,,E*6F
$GPRMC,163926.400,V,4017.0023,N,00349.1592,W,2.11,352.71,220313,,,E*61
$GPRMC,163927.400,V,4017.0028,N,00349.1594,W,2.12,351.92,220313,,,E*60
$GPRMC,163928.400,V,4017.0035,N,00349.1596,W,2.18,351.48,220313,,,E*6C
